[
    {
      "name": "Adana",
      "latitude": 37.0015,
      "longitude": 35.3213,
      "electricity": 878 
    },
    {
      "name": "Adıyaman",
      "latitude": 37.7648,
      "longitude": 38.2792,
      "electricity": 501  
    },
    {
      "name": "Afyonkarahisar",
      "latitude": 38.7582,
      "longitude": 30.694,
      "electricity": 611  
    },
    {
      "name": "Ağrı",
      "latitude": 39.721,
      "longitude": 43.048,
      "electricity": 449  
    },
    {
      "name": "Aksaray",
      "latitude": 38.3687,
      "longitude": 34.0257,
      "electricity": 597  
    },
    {
      "name": "Amasya",
      "latitude": 40.6499,
      "longitude": 35.8388,
      "electricity": 695  
    },
    {
      "name": "Ankara",
      "latitude": 39.9334,
      "longitude": 32.8597,
      "electricity": 834  
    },  
    {
      "name": "Antalya",
      "latitude": 36.8969,
      "longitude": 30.7133,
      "electricity": 1202  
    },
    {
      "name": "Ardahan",
      "latitude": 41.1107,
      "longitude": 42.7032,
      "electricity": 547  
    },
    {
      "name": "Artvin",
      "latitude": 41.1608,
      "longitude": 41.1828,
      "electricity": 871  
    },
    {
      "name": "Aydın",
      "latitude": 37.856,
      "longitude": 27.8396,
      "electricity": 1099  
    },
    {
      "name": "Balıkesir",
      "latitude": 39.6484,
      "longitude": 27.8617,
      "electricity": 944  
    },
    {
      "name": "Bartın",
      "latitude": 41.5811,
      "longitude": 32.4824,
      "electricity": 708  
    },
    {
      "name": "Batman",
      "latitude": 37.8876,
      "longitude": 41.1351,
      "electricity": 561  
    },
    {
      "name": "Bayburt",
      "latitude": 40.2558,
      "longitude": 40.2556,
      "electricity": 572  
    },
    {
      "name": "Bilecik",
      "latitude": 40.0567,
      "longitude": 30.1678,
      "electricity": 611  
    },
    {
      "name": "Bingöl",
      "latitude": 39.0626,
      "longitude": 40.4881,
      "electricity": 485  
    },
    {
      "name": "Bitlis",
      "latitude": 38.3942,
      "longitude": 42.7917,
      "electricity": 407  
    },
    {
      "name": "Bolu",
      "latitude": 40.671,
      "longitude": 31.6174,
      "electricity": 718  
    },
    {
      "name": "Burdur",
      "latitude": 37.7242,
      "longitude": 30.2841,
      "electricity": 663  
    },
    {
      "name": "Bursa",
      "latitude": 40.1824,
      "longitude": 29.0634,
      "electricity": 736  
    },
    {
      "name": "Çanakkale",
      "latitude": 40.1553,
      "longitude": 26.405,
      "electricity": 833  
    },
    {
      "name": "Çankırı",
      "latitude": 40.6667,
      "longitude": 33.7863,
      "electricity": 633  
    },
    {
      "name": "Çorum",
      "latitude": 40.5506,
      "longitude": 34.953,
      "electricity": 637  
    },
    {
      "name": "Denizli",
      "latitude": 37.7799,
      "longitude": 29.0669,
      "electricity": 763  
    },
    {
      "name": "Diyarbakır",
      "latitude": 37.9144,
      "longitude": 40.2167,
      "electricity": 491 
    },
    {
      "name": "Düzce",
      "latitude": 40.8438,
      "longitude": 31.2156,
      "electricity": 706  
    },
    {
      "name": "Edirne",
      "latitude": 41.6772,
      "longitude": 26.5594,
      "electricity": 817  
    },
    {
      "name": "Elazığ",
      "latitude": 38.6809,
      "longitude": 39.2232,
      "electricity": 561  
    },
    {
      "name": "Erzincan",
      "latitude": 39.75,
      "longitude": 39.6715,
      "electricity": 580  
    },
    {
      "name": "Erzurum",
      "latitude": 39.9086,
      "longitude": 41.5136,
      "electricity": 536  
    },
    {
      "name": "Eskişehir",
      "latitude": 39.7667,
      "longitude": 30.519,
      "electricity": 733  
    },
    {
      "name": "Gaziantep",
      "latitude": 37.0662,
      "longitude": 37.3825,
      "electricity": 679  
    },
    {
      "name": "Giresun",
      "latitude": 40.913,
      "longitude": 38.4988,
      "electricity": 795  
    },
    {
      "name": "Gümüşhane",
      "latitude": 40.4606,
      "longitude": 39.4842,
      "electricity": 531  
    },
    {
      "name": "Hakkari",
      "latitude": 37.5744,
      "longitude": 43.7407,
      "electricity": 465  
    },
    {
      "name": "Hatay",
      "latitude": 36.4012,
      "longitude": 36.1284,
      "electricity": 847  
    },
    {
      "name": "Iğdır",
      "latitude": 39.8881,
      "longitude": 43.7222,
      "electricity": 475  
    },
    {
      "name": "Isparta",
      "latitude": 37.7648,
      "longitude": 31.1897,
      "electricity": 692  
    },
    {
      "name": "İstanbul",
      "latitude": 41.0082,
      "longitude": 28.9784,
      "electricity": 807  
    },
    {
      "name": "İzmir",
      "latitude": 38.4192,
      "longitude": 27.1428,
      "electricity": 1163  
    },
    {
      "name": "Kahramanmaraş",
      "latitude": 37.5892,
      "longitude": 36.9447,
      "electricity": 547  
    },
    {
      "name": "Karabük",
      "latitude": 41.1975,
      "longitude": 32.6158,
      "electricity": 645  
    },
    {
      "name": "Karaman",
      "latitude": 37.181,
      "longitude": 33.2287,
      "electricity": 603  
    },
    {
      "name": "Kars",
      "latitude": 40.5488,
      "longitude": 42.5859,
      "electricity": 460  
    },
    {
      "name": "Kastamonu",
      "latitude": 41.3871,
      "longitude": 33.7825,
      "electricity": 718  
    },
    {
      "name": "Kayseri",
      "latitude": 38.7348,
      "longitude": 35.49,
      "electricity": 653  
    },
    {
      "name": "Kırıkkale",
      "latitude": 39.8468,
      "longitude": 33.5722,
      "electricity": 652  
    },
    {
      "name": "Kırklareli",
      "latitude": 41.733,
      "longitude": 27.2217,
      "electricity": 770  
    },
    {
      "name": "Kırşehir",
      "latitude": 39.1425,
      "longitude": 34.1674,
      "electricity": 615  
    },
    {
      "name": "Kilis",
      "latitude": 36.7194,
      "longitude": 37.1136,
      "electricity": 818  
    },
    {
      "name": "Kocaeli",
      "latitude": 40.8533,
      "longitude": 29.941,
      "electricity": 742  
    },
    {
      "name": "Konya",
      "latitude": 37.8715,
      "longitude": 32.4824,
      "electricity": 661  
    },
    {
      "name": "Kütahya",
      "latitude": 39.4167,
      "longitude": 29.1047,
      "electricity": 602  
    },
    {
      "name": "Malatya",
      "latitude": 38.3554,
      "longitude": 38.3554,
      "electricity": 576  
    },
    {
      "name": "Manisa",
      "latitude": 38.6191,
      "longitude": 27.7281,
      "electricity": 750  
    },
    {
      "name": "Mardin",
      "latitude": 37.3138,
      "longitude": 40.743,
      "electricity": 554  
    },
    {
      "name": "Mersin",
      "latitude": 36.8008,
      "longitude": 34.6515,
      "electricity": 919  
    },
    {
      "name": "Muğla",
      "latitude": 37.1642,
      "longitude": 28.3636,
      "electricity": 1446  
    },
    {
      "name": "Muş",
      "latitude": 38.9462,
      "longitude": 41.7461,
      "electricity": 411  
    },
    {
      "name": "Nevşehir",
      "latitude": 38.625,
      "longitude": 34.6857,
      "electricity": 698  
    },
    {
      "name": "Niğde",
      "latitude": 37.9564,
      "longitude": 34.6948,
      "electricity": 631  
    },
    {
      "name": "Ordu",
      "latitude": 40.9847,
      "longitude": 37.3894,
      "electricity": 608  
    },
    {
      "name": "Osmaniye",
      "latitude": 37.213,
      "longitude": 36.2477,
      "electricity": 688  
    },
    {
      "name": "Rize",
      "latitude": 40.8954,
      "longitude": 40.8949,
      "electricity": 839  
    },
    {
      "name": "Sakarya",
      "latitude": 40.7262,
      "longitude": 30.595,
      "electricity": 800  
    },
    {
      "name": "Samsun",
      "latitude": 41.2867,
      "longitude": 36.3313,
      "electricity": 692  
    },
    {
      "name": "Şanlıurfa",
      "latitude": 37.1591,
      "longitude": 38.9968,
      "electricity": 504  
    },
    {
      "name": "Siirt",
      "latitude": 37.9272,
      "longitude": 42.1681,
      "electricity": 421  
    },
    {
      "name": "Sinop",
      "latitude": 42.0231,
      "longitude": 34.8697,
      "electricity": 1097  
    },
    {
      "name": "Sivas",
      "latitude": 39.7477,
      "longitude": 37.0158,
      "electricity": 577  
    },
    {
      "name": "Şırnak",
      "latitude": 37.5111,
      "longitude": 42.4541,
      "electricity": 362  
    },
    {
      "name": "Tekirdağ",
      "latitude": 40.9836,
      "longitude": 27.5142,
      "electricity": 726  
    },
    {
      "name": "Tokat",
      "latitude": 40.3156,
      "longitude": 36.5549,
      "electricity": 600  
    },
    {
      "name": "Trabzon",
      "latitude": 40.9812,
      "longitude": 39.7241,
      "electricity": 873  
    },
    {
      "name": "Tunceli",
      "latitude": 39.1079,
      "longitude": 39.5472,
      "electricity": 592  
    },
    {
      "name": "Uşak",
      "latitude": 38.66,
      "longitude": 29.4082,
      "electricity": 681  
    },
    {
      "name": "Van",
      "latitude": 38.5016,
      "longitude": 43.3619,
      "electricity": 439  
    },
    {
      "name": "Yalova",
      "latitude": 40.655,
      "longitude": 29.2784,
      "electricity": 854  
    },
    {
      "name": "Yozgat",
      "latitude": 39.821,
      "longitude": 35.4686,
      "electricity": 564  
    },
    {
      "name": "Zonguldak",
      "latitude": 41.4564,
      "longitude": 31.8339,
      "electricity": 714  
    }
  ]